{
  "type": "FeatureCollection",
  "features": [
    {
      "type": "Feature",
      "properties": {
        "id": 20,
        "farm_category": "Crop Farm",
        "farm_type": "Both",
        "name": "Onbayughs Farm",
        "region": "NC",
        "state": "BE"
      },
      "wkb_geometry": {
        "type": "Point",
        "coordinates": [
          9.3060367,
          7.2419867
        ]
      }
    },
    {
      "type": "Feature",
      "properties": {
        "id": 68,
        "farm_category": "Crop Farm",
        "farm_type": "Both",
        "name": "Cassava Farm 1",
        "region": "NC",
        "state": "BE"
      },
      "wkb_geometry": {
        "type": "Point",
        "coordinates": [
          9.115345,
          7.48078
        ]
      }
    },
    {
      "type": "Feature",
      "properties": {
        "id": 238,
        "farm_category": "Crop Farm",
        "farm_type": "Commercial",
        "name": "Agema Orange Orchard",
        "region": "NC",
        "state": "BE"
      },
      "wkb_geometry": {
        "type": "Point",
        "coordinates": [
          9.0048217,
          7.0085183
        ]
      }
    },
    {
      "type": "Feature",
      "properties": {
        "id": 365,
        "farm_category": "Crop Farm",
        "farm_type": "Commercial",
        "name": "Casava Farm Effeche Akpali Ugbokolo Edumoga",
        "region": "NC",
        "state": "BE"
      },
      "wkb_geometry": {
        "type": "Point",
        "coordinates": [
          7.746935,
          7.1679317
        ]
      }
    },
    {
      "type": "Feature",
      "properties": {
        "id": 417,
        "farm_category": "Crop Farm",
        "farm_type": "Commercial",
        "name": "Orange Farm 11",
        "region": "NC",
        "state": "BE"
      },
      "wkb_geometry": {
        "type": "Point",
        "coordinates": [
          8.9984067,
          7.2500567
        ]
      }
    },
    {
      "type": "Feature",
      "properties": {
        "id": 426,
        "farm_category": "Mixed Farm",
        "farm_type": "Commercial",
        "name": "Orange Farm 4",
        "region": "NC",
        "state": "BE"
      },
      "wkb_geometry": {
        "type": "Point",
        "coordinates": [
          8.8213767,
          7.6438467
        ]
      }
    },
    {
      "type": "Feature",
      "properties": {
        "id": 471,
        "farm_category": "Crop Farm",
        "farm_type": "Both",
        "name": "Orange Farm 1",
        "region": "NC",
        "state": "BE"
      },
      "wkb_geometry": {
        "type": "Point",
        "coordinates": [
          9.131315,
          7.32384
        ]
      }
    },
    {
      "type": "Feature",
      "properties": {
        "id": 475,
        "farm_category": "Crop Farm",
        "farm_type": "Commercial",
        "name": "Igbatagher Yua Orchard",
        "region": "NC",
        "state": "BE"
      },
      "wkb_geometry": {
        "type": "Point",
        "coordinates": [
          8.828615,
          7.3929483
        ]
      }
    },
    {
      "type": "Feature",
      "properties": {
        "id": 489,
        "farm_category": "Unknown",
        "farm_type": "Both",
        "name": "Orange Farm 7",
        "region": "NC",
        "state": "BE"
      },
      "wkb_geometry": {
        "type": "Point",
        "coordinates": [
          9.103835,
          7.0364017
        ]
      }
    },
    {
      "type": "Feature",
      "properties": {
        "id": 522,
        "farm_category": "Crop Farm",
        "farm_type": "Subsistence",
        "name": "Cassava Farm",
        "region": "NC",
        "state": "BE"
      },
      "wkb_geometry": {
        "type": "Point",
        "coordinates": [
          7.8560817,
          7.1572633
        ]
      }
    },
    {
      "type": "Feature",
      "properties": {
        "id": 601,
        "farm_category": "Mixed Farm",
        "farm_type": "Both",
        "name": "Tyoyima Orga Yam Farm",
        "region": "NC",
        "state": "BE"
      },
      "wkb_geometry": {
        "type": "Point",
        "coordinates": [
          9.406775,
          7.58925
        ]
      }
    },
    {
      "type": "Feature",
      "properties": {
        "id": 778,
        "farm_category": "Crop Farm",
        "farm_type": "Both",
        "name": "Crop Farm",
        "region": "NC",
        "state": "BE"
      },
      "wkb_geometry": {
        "type": "Point",
        "coordinates": [
          9.2027483,
          7.33052
        ]
      }
    },
    {
      "type": "Feature",
      "properties": {
        "id": 841,
        "farm_category": "Mixed Farm",
        "farm_type": "Commercial",
        "name": "Terungwa Wombo Orange Farm",
        "region": "NC",
        "state": "BE"
      },
      "wkb_geometry": {
        "type": "Point",
        "coordinates": [
          9.5071133,
          7.3888733
        ]
      }
    },
    {
      "type": "Feature",
      "properties": {
        "id": 857,
        "farm_category": "Crop Farm",
        "farm_type": "Both",
        "name": "Yam Farm 3",
        "region": "NC",
        "state": "BE"
      },
      "wkb_geometry": {
        "type": "Point",
        "coordinates": [
          9.1614167,
          7.6224317
        ]
      }
    },
    {
      "type": "Feature",
      "properties": {
        "id": 1049,
        "farm_category": "Mixed Farm",
        "farm_type": "Commercial",
        "name": "Orange Plantation",
        "region": "NC",
        "state": "BE"
      },
      "wkb_geometry": {
        "type": "Point",
        "coordinates": [
          9.448725,
          7.3708867
        ]
      }
    },
    {
      "type": "Feature",
      "properties": {
        "id": 1194,
        "farm_category": "Crop Farm",
        "farm_type": "Both",
        "name": "Banana Farm",
        "region": "NC",
        "state": "BE"
      },
      "wkb_geometry": {
        "type": "Point",
        "coordinates": [
          9.33134,
          7.4598367
        ]
      }
    },
    {
      "type": "Feature",
      "properties": {
        "id": 1219,
        "farm_category": "Crop Farm",
        "farm_type": "Commercial",
        "name": "Dent Tyover Orange Orchard",
        "region": "NC",
        "state": "BE"
      },
      "wkb_geometry": {
        "type": "Point",
        "coordinates": [
          8.51963,
          7.2281017
        ]
      }
    },
    {
      "type": "Feature",
      "properties": {
        "id": 1236,
        "farm_category": "Crop Farm",
        "farm_type": "Both",
        "name": "Shierkuma Kugen Orchard",
        "region": "NC",
        "state": "BE"
      },
      "wkb_geometry": {
        "type": "Point",
        "coordinates": [
          9.12623,
          7.398045
        ]
      }
    },
    {
      "type": "Feature",
      "properties": {
        "id": 1281,
        "farm_category": "Mixed Farm",
        "farm_type": "Both",
        "name": "Akaanger Anom Farm",
        "region": "NC",
        "state": "BE"
      },
      "wkb_geometry": {
        "type": "Point",
        "coordinates": [
          8.9217303,
          7.3797156
        ]
      }
    },
    {
      "type": "Feature",
      "properties": {
        "id": 1325,
        "farm_category": "Crop Farm",
        "farm_type": "Both",
        "name": "Kulu Akor Orange And Palm Trees Farm",
        "region": "NC",
        "state": "BE"
      },
      "wkb_geometry": {
        "type": "Point",
        "coordinates": [
          8.7198817,
          7.1867617
        ]
      }
    },
    {
      "type": "Feature",
      "properties": {
        "id": 1349,
        "farm_category": "Crop Farm",
        "farm_type": "Commercial",
        "name": "Tersoo Cassava Farm",
        "region": "NC",
        "state": "BE"
      },
      "wkb_geometry": {
        "type": "Point",
        "coordinates": [
          8.9751533,
          7.1021467
        ]
      }
    },
    {
      "type": "Feature",
      "properties": {
        "id": 1351,
        "farm_category": "Crop Farm",
        "farm_type": "Both",
        "name": "Mnguseer Farm",
        "region": "NC",
        "state": "BE"
      },
      "wkb_geometry": {
        "type": "Point",
        "coordinates": [
          9.303045,
          7.1880183
        ]
      }
    },
    {
      "type": "Feature",
      "properties": {
        "id": 1364,
        "farm_category": "Unknown",
        "farm_type": "Commercial",
        "name": "Orange Farm 4",
        "region": "NC",
        "state": "BE"
      },
      "wkb_geometry": {
        "type": "Point",
        "coordinates": [
          9.24742,
          7.11826
        ]
      }
    },
    {
      "type": "Feature",
      "properties": {
        "id": 1456,
        "farm_category": "Mixed Farm",
        "farm_type": "Commercial",
        "name": "Guinea Corn",
        "region": "NC",
        "state": "BE"
      },
      "wkb_geometry": {
        "type": "Point",
        "coordinates": [
          9.8019883,
          7.3979733
        ]
      }
    },
    {
      "type": "Feature",
      "properties": {
        "id": 1541,
        "farm_category": "Crop Farm",
        "farm_type": "Commercial",
        "name": "Cassava Farm",
        "region": "NC",
        "state": "BE"
      },
      "wkb_geometry": {
        "type": "Point",
        "coordinates": [
          9.3565583,
          7.5079
        ]
      }
    },
    {
      "type": "Feature",
      "properties": {
        "id": 1616,
        "farm_category": "Crop Farm",
        "farm_type": "Commercial",
        "name": "Chief Kunav Anum Orange Farm",
        "region": "NC",
        "state": "BE"
      },
      "wkb_geometry": {
        "type": "Point",
        "coordinates": [
          8.9438667,
          7.4681667
        ]
      }
    },
    {
      "type": "Feature",
      "properties": {
        "id": 1719,
        "farm_category": "Crop Farm",
        "farm_type": "Both",
        "name": "Food Crop Farm 7",
        "region": "NC",
        "state": "BE"
      },
      "wkb_geometry": {
        "type": "Point",
        "coordinates": [
          9.1205967,
          7.7825633
        ]
      }
    },
    {
      "type": "Feature",
      "properties": {
        "id": 1810,
        "farm_category": "Animal Farm",
        "farm_type": "Both",
        "name": "Pig Farm",
        "region": "NC",
        "state": "BE"
      },
      "wkb_geometry": {
        "type": "Point",
        "coordinates": [
          8.9418717,
          7.1751467
        ]
      }
    },
    {
      "type": "Feature",
      "properties": {
        "id": 1862,
        "farm_category": "Crop Farm",
        "farm_type": "Both",
        "name": "Orange Farm 12",
        "region": "NC",
        "state": "BE"
      },
      "wkb_geometry": {
        "type": "Point",
        "coordinates": [
          8.9416083,
          7.1283
        ]
      }
    },
    {
      "type": "Feature",
      "properties": {
        "id": 1878,
        "farm_category": "Crop Farm",
        "farm_type": "Commercial",
        "name": "Jacob Orange Orchard",
        "region": "NC",
        "state": "BE"
      },
      "wkb_geometry": {
        "type": "Point",
        "coordinates": [
          9.03869,
          7.0208833
        ]
      }
    },
    {
      "type": "Feature",
      "properties": {
        "id": 1895,
        "farm_category": "Crop Farm",
        "farm_type": "Both",
        "name": "Food Crop Farm 4",
        "region": "NC",
        "state": "BE"
      },
      "wkb_geometry": {
        "type": "Point",
        "coordinates": [
          9.0774858,
          7.7731775
        ]
      }
    },
    {
      "type": "Feature",
      "properties": {
        "id": 1929,
        "farm_category": "Unknown",
        "farm_type": "Commercial",
        "name": "Orange Farm 12",
        "region": "NC",
        "state": "BE"
      },
      "wkb_geometry": {
        "type": "Point",
        "coordinates": [
          9.0973833,
          7.0353617
        ]
      }
    },
    {
      "type": "Feature",
      "properties": {
        "id": 1946,
        "farm_category": "Crop Farm",
        "farm_type": "Both",
        "name": "Orange Orchard 3",
        "region": "NC",
        "state": "BE"
      },
      "wkb_geometry": {
        "type": "Point",
        "coordinates": [
          8.77549,
          7.5588883
        ]
      }
    },
    {
      "type": "Feature",
      "properties": {
        "id": 1955,
        "farm_category": "Crop Farm",
        "farm_type": "Both",
        "name": "Food Crop Farm 15",
        "region": "NC",
        "state": "BE"
      },
      "wkb_geometry": {
        "type": "Point",
        "coordinates": [
          9.1185785,
          7.7732457
        ]
      }
    },
    {
      "type": "Feature",
      "properties": {
        "id": 2118,
        "farm_category": "Crop Farm",
        "farm_type": "Commercial",
        "name": "Heberdoon Cassava Farm",
        "region": "NC",
        "state": "BE"
      },
      "wkb_geometry": {
        "type": "Point",
        "coordinates": [
          9.4653267,
          7.263345
        ]
      }
    },
    {
      "type": "Feature",
      "properties": {
        "id": 2130,
        "farm_category": "Crop Farm",
        "farm_type": "Both",
        "name": "Adaar Orange And Cassava Farm",
        "region": "NC",
        "state": "BE"
      },
      "wkb_geometry": {
        "type": "Point",
        "coordinates": [
          9.1204033,
          7.3981567
        ]
      }
    },
    {
      "type": "Feature",
      "properties": {
        "id": 2199,
        "farm_category": "Crop Farm",
        "farm_type": "Both",
        "name": "Veror Adonko Orange Palm Trees And Plantain Farm",
        "region": "NC",
        "state": "BE"
      },
      "wkb_geometry": {
        "type": "Point",
        "coordinates": [
          8.7270533,
          7.19933
        ]
      }
    },
    {
      "type": "Feature",
      "properties": {
        "id": 2216,
        "farm_category": "Crop Farm",
        "farm_type": "Both",
        "name": "Food Crop Farm 1",
        "region": "NC",
        "state": "BE"
      },
      "wkb_geometry": {
        "type": "Point",
        "coordinates": [
          9.07542,
          7.50106
        ]
      }
    },
    {
      "type": "Feature",
      "properties": {
        "id": 2217,
        "farm_category": "Crop Farm",
        "farm_type": "Both",
        "name": "Orchard 16",
        "region": "NC",
        "state": "BE"
      },
      "wkb_geometry": {
        "type": "Point",
        "coordinates": [
          9.2499883,
          7.4967717
        ]
      }
    },
    {
      "type": "Feature",
      "properties": {
        "id": 2342,
        "farm_category": "Crop Farm",
        "farm_type": "Subsistence",
        "name": "Ette Adum Farm",
        "region": "NC",
        "state": "BE"
      },
      "wkb_geometry": {
        "type": "Point",
        "coordinates": [
          8.3519017,
          6.7790833
        ]
      }
    },
    {
      "type": "Feature",
      "properties": {
        "id": 2350,
        "farm_category": "Crop Farm",
        "farm_type": "Commercial",
        "name": "Cassava Farm 1",
        "region": "NC",
        "state": "BE"
      },
      "wkb_geometry": {
        "type": "Point",
        "coordinates": [
          8.9747667,
          7.26921
        ]
      }
    },
    {
      "type": "Feature",
      "properties": {
        "id": 2353,
        "farm_category": "Crop Farm",
        "farm_type": "Both",
        "name": "Aondoakuras Yam Farm",
        "region": "NC",
        "state": "BE"
      },
      "wkb_geometry": {
        "type": "Point",
        "coordinates": [
          9.5036717,
          7.4322667
        ]
      }
    },
    {
      "type": "Feature",
      "properties": {
        "id": 2399,
        "farm_category": "Animal Farm",
        "farm_type": "Both",
        "name": "Tsekaa Gabriel Orwuaga Pigs Farm",
        "region": "NC",
        "state": "BE"
      },
      "wkb_geometry": {
        "type": "Point",
        "coordinates": [
          9.7135183,
          7.6142667
        ]
      }
    },
    {
      "type": "Feature",
      "properties": {
        "id": 2486,
        "farm_category": "Crop Farm",
        "farm_type": "Both",
        "name": "Aondonengen Yam Farm",
        "region": "NC",
        "state": "BE"
      },
      "wkb_geometry": {
        "type": "Point",
        "coordinates": [
          9.272255,
          7.80212
        ]
      }
    },
    {
      "type": "Feature",
      "properties": {
        "id": 2504,
        "farm_category": "Mixed Farm",
        "farm_type": "Both",
        "name": "Palm Trees And Orange Farm",
        "region": "NC",
        "state": "BE"
      },
      "wkb_geometry": {
        "type": "Point",
        "coordinates": [
          8.8637517,
          7.6833717
        ]
      }
    },
    {
      "type": "Feature",
      "properties": {
        "id": 2581,
        "farm_category": "Crop Farm",
        "farm_type": "Commercial",
        "name": "Terseer Torkula Orange Farm",
        "region": "NC",
        "state": "BE"
      },
      "wkb_geometry": {
        "type": "Point",
        "coordinates": [
          9.0123217,
          6.8887233
        ]
      }
    },
    {
      "type": "Feature",
      "properties": {
        "id": 2594,
        "farm_category": "Crop Farm",
        "farm_type": "Commercial",
        "name": "Yina Yam Farm",
        "region": "NC",
        "state": "BE"
      },
      "wkb_geometry": {
        "type": "Point",
        "coordinates": [
          9.839665,
          7.3330983
        ]
      }
    },
    {
      "type": "Feature",
      "properties": {
        "id": 2619,
        "farm_category": "Crop Farm",
        "farm_type": "Both",
        "name": "Oryina Farm",
        "region": "NC",
        "state": "BE"
      },
      "wkb_geometry": {
        "type": "Point",
        "coordinates": [
          9.380115,
          7.5326383
        ]
      }
    },
    {
      "type": "Feature",
      "properties": {
        "id": 2662,
        "farm_category": "Mixed Farm",
        "farm_type": "Both",
        "name": "Orange Farm 2",
        "region": "NC",
        "state": "BE"
      },
      "wkb_geometry": {
        "type": "Point",
        "coordinates": [
          9.698415,
          7.235475
        ]
      }
    },
    {
      "type": "Feature",
      "properties": {
        "id": 2692,
        "farm_category": "Animal Farm",
        "farm_type": "Both",
        "name": "Chicken Farm",
        "region": "NC",
        "state": "BE"
      },
      "wkb_geometry": {
        "type": "Point",
        "coordinates": [
          8.1703417,
          7.186215
        ]
      }
    },
    {
      "type": "Feature",
      "properties": {
        "id": 2695,
        "farm_category": "Crop Farm",
        "farm_type": "Both",
        "name": "Orange Orchard 4",
        "region": "NC",
        "state": "BE"
      },
      "wkb_geometry": {
        "type": "Point",
        "coordinates": [
          8.80901,
          7.5621067
        ]
      }
    },
    {
      "type": "Feature",
      "properties": {
        "id": 2703,
        "farm_category": "Crop Farm",
        "farm_type": "Both",
        "name": "Onmbayughs Farm",
        "region": "NC",
        "state": "BE"
      },
      "wkb_geometry": {
        "type": "Point",
        "coordinates": [
          9.4948417,
          7.4322117
        ]
      }
    },
    {
      "type": "Feature",
      "properties": {
        "id": 2709,
        "farm_category": "Mixed Farm",
        "farm_type": "Both",
        "name": "Terhile Aondover Orange Farm",
        "region": "NC",
        "state": "BE"
      },
      "wkb_geometry": {
        "type": "Point",
        "coordinates": [
          9.6188383,
          7.5762917
        ]
      }
    },
    {
      "type": "Feature",
      "properties": {
        "id": 2715,
        "farm_category": "Unknown",
        "farm_type": "Commercial",
        "name": "Malina Trees And Thick Trees Farm",
        "region": "NC",
        "state": "BE"
      },
      "wkb_geometry": {
        "type": "Point",
        "coordinates": [
          8.8653783,
          7.6817517
        ]
      }
    },
    {
      "type": "Feature",
      "properties": {
        "id": 2873,
        "farm_category": "Crop Farm",
        "farm_type": "Both",
        "name": "Rice Farm 1",
        "region": "NC",
        "state": "BE"
      },
      "wkb_geometry": {
        "type": "Point",
        "coordinates": [
          9.0744897,
          7.7762471
        ]
      }
    },
    {
      "type": "Feature",
      "properties": {
        "id": 2874,
        "farm_category": "Crop Farm",
        "farm_type": "Both",
        "name": "Orange Orchard 7",
        "region": "NC",
        "state": "BE"
      },
      "wkb_geometry": {
        "type": "Point",
        "coordinates": [
          8.8552333,
          7.6356183
        ]
      }
    },
    {
      "type": "Feature",
      "properties": {
        "id": 2897,
        "farm_category": "Crop Farm",
        "farm_type": "Commercial",
        "name": "Orange Farm 2",
        "region": "NC",
        "state": "BE"
      },
      "wkb_geometry": {
        "type": "Point",
        "coordinates": [
          9.6061106,
          7.4566904
        ]
      }
    },
    {
      "type": "Feature",
      "properties": {
        "id": 2934,
        "farm_category": "Animal Farm",
        "farm_type": "Both",
        "name": "Aseer Kayo Orange",
        "region": "NC",
        "state": "BE"
      },
      "wkb_geometry": {
        "type": "Point",
        "coordinates": [
          9.0896171,
          6.9201481
        ]
      }
    },
    {
      "type": "Feature",
      "properties": {
        "id": 2956,
        "farm_category": "Unknown",
        "farm_type": "Commercial",
        "name": "Orange Orchard Market Amua Road",
        "region": "NC",
        "state": "BE"
      },
      "wkb_geometry": {
        "type": "Point",
        "coordinates": [
          8.9945433,
          7.42493
        ]
      }
    },
    {
      "type": "Feature",
      "properties": {
        "id": 2982,
        "farm_category": "Mixed Farm",
        "farm_type": "Both",
        "name": "Akaakumba",
        "region": "NC",
        "state": "BE"
      },
      "wkb_geometry": {
        "type": "Point",
        "coordinates": [
          9.47092,
          7.157795
        ]
      }
    },
    {
      "type": "Feature",
      "properties": {
        "id": 3036,
        "farm_category": "Crop Farm",
        "farm_type": "Commercial",
        "name": "Terhemba Ikyuen Orange Orchards Farm",
        "region": "NC",
        "state": "BE"
      },
      "wkb_geometry": {
        "type": "Point",
        "coordinates": [
          8.6710617,
          7.23501
        ]
      }
    },
    {
      "type": "Feature",
      "properties": {
        "id": 3089,
        "farm_category": "Mixed Farm",
        "farm_type": "Commercial",
        "name": "Yongu Orange Farm",
        "region": "NC",
        "state": "BE"
      },
      "wkb_geometry": {
        "type": "Point",
        "coordinates": [
          8.9573117,
          7.06221
        ]
      }
    },
    {
      "type": "Feature",
      "properties": {
        "id": 3102,
        "farm_category": "Mixed Farm",
        "farm_type": "Commercial",
        "name": "Mr Asue Yankwans Orange Farm",
        "region": "NC",
        "state": "BE"
      },
      "wkb_geometry": {
        "type": "Point",
        "coordinates": [
          8.9897333,
          7.2648283
        ]
      }
    },
    {
      "type": "Feature",
      "properties": {
        "id": 3160,
        "farm_category": "Animal Farm",
        "farm_type": "Both",
        "name": "Piggery Farm",
        "region": "NC",
        "state": "BE"
      },
      "wkb_geometry": {
        "type": "Point",
        "coordinates": [
          9.622735,
          7.5149983
        ]
      }
    },
    {
      "type": "Feature",
      "properties": {
        "id": 3161,
        "farm_category": "Crop Farm",
        "farm_type": "Commercial",
        "name": "Waakaa Jingir Yam Farm",
        "region": "NC",
        "state": "BE"
      },
      "wkb_geometry": {
        "type": "Point",
        "coordinates": [
          9.5534333,
          7.302705
        ]
      }
    },
    {
      "type": "Feature",
      "properties": {
        "id": 3182,
        "farm_category": "Crop Farm",
        "farm_type": "Both",
        "name": "Gabriel Orange Farm",
        "region": "NC",
        "state": "BE"
      },
      "wkb_geometry": {
        "type": "Point",
        "coordinates": [
          7.88917,
          7.649915
        ]
      }
    },
    {
      "type": "Feature",
      "properties": {
        "id": 3226,
        "farm_category": "Crop Farm",
        "farm_type": "Both",
        "name": "Iorliam Guusu Farm",
        "region": "NC",
        "state": "BE"
      },
      "wkb_geometry": {
        "type": "Point",
        "coordinates": [
          8.7710683,
          7.3370333
        ]
      }
    },
    {
      "type": "Feature",
      "properties": {
        "id": 3262,
        "farm_category": "Crop Farm",
        "farm_type": "Both",
        "name": "Food Crop Farm 3",
        "region": "NC",
        "state": "BE"
      },
      "wkb_geometry": {
        "type": "Point",
        "coordinates": [
          9.1271833,
          7.76179
        ]
      }
    },
    {
      "type": "Feature",
      "properties": {
        "id": 3275,
        "farm_category": "Crop Farm",
        "farm_type": "Commercial",
        "name": "Orange Farm 1",
        "region": "NC",
        "state": "BE"
      },
      "wkb_geometry": {
        "type": "Point",
        "coordinates": [
          9.37339,
          7.0163667
        ]
      }
    },
    {
      "type": "Feature",
      "properties": {
        "id": 3394,
        "farm_category": "Crop Farm",
        "farm_type": "Both",
        "name": "Aondohemba Kobo Farm",
        "region": "NC",
        "state": "BE"
      },
      "wkb_geometry": {
        "type": "Point",
        "coordinates": [
          9.5053617,
          7.0249433
        ]
      }
    },
    {
      "type": "Feature",
      "properties": {
        "id": 3400,
        "farm_category": "Crop Farm",
        "farm_type": "Commercial",
        "name": "Cassava Farm",
        "region": "NC",
        "state": "BE"
      },
      "wkb_geometry": {
        "type": "Point",
        "coordinates": [
          9.495785,
          7.59051
        ]
      }
    },
    {
      "type": "Feature",
      "properties": {
        "id": 3403,
        "farm_category": "Crop Farm",
        "farm_type": "Both",
        "name": "Orange Farm 1",
        "region": "NC",
        "state": "BE"
      },
      "wkb_geometry": {
        "type": "Point",
        "coordinates": [
          9.2575817,
          7.070385
        ]
      }
    },
    {
      "type": "Feature",
      "properties": {
        "id": 3421,
        "farm_category": "Crop Farm",
        "farm_type": "Commercial",
        "name": "Village Farm",
        "region": "NC",
        "state": "BE"
      },
      "wkb_geometry": {
        "type": "Point",
        "coordinates": [
          9.31713,
          7.423395
        ]
      }
    },
    {
      "type": "Feature",
      "properties": {
        "id": 3423,
        "farm_category": "Crop Farm",
        "farm_type": "Both",
        "name": "Zaki Awar Orange Farm",
        "region": "NC",
        "state": "BE"
      },
      "wkb_geometry": {
        "type": "Point",
        "coordinates": [
          8.9773683,
          7.3018333
        ]
      }
    },
    {
      "type": "Feature",
      "properties": {
        "id": 3436,
        "farm_category": "Mixed Farm",
        "farm_type": "Commercial",
        "name": "Orange Farm 10",
        "region": "NC",
        "state": "BE"
      },
      "wkb_geometry": {
        "type": "Point",
        "coordinates": [
          8.646635,
          7.13118
        ]
      }
    },
    {
      "type": "Feature",
      "properties": {
        "id": 3503,
        "farm_category": "Crop Farm",
        "farm_type": "Both",
        "name": "Hiam Agande Groundnut Farm",
        "region": "NC",
        "state": "BE"
      },
      "wkb_geometry": {
        "type": "Point",
        "coordinates": [
          9.2697317,
          7.785165
        ]
      }
    },
    {
      "type": "Feature",
      "properties": {
        "id": 3516,
        "farm_category": "Crop Farm",
        "farm_type": "Both",
        "name": "Terver Oradi Orange Farm",
        "region": "NC",
        "state": "BE"
      },
      "wkb_geometry": {
        "type": "Point",
        "coordinates": [
          8.84215,
          7.449275
        ]
      }
    },
    {
      "type": "Feature",
      "properties": {
        "id": 3536,
        "farm_category": "Mixed Farm",
        "farm_type": "Both",
        "name": "Kpishi Farm",
        "region": "NC",
        "state": "BE"
      },
      "wkb_geometry": {
        "type": "Point",
        "coordinates": [
          8.975575,
          7.3410517
        ]
      }
    },
    {
      "type": "Feature",
      "properties": {
        "id": 3541,
        "farm_category": "Mixed Farm",
        "farm_type": "Commercial",
        "name": "Teakon Integrated Farm",
        "region": "NC",
        "state": "BE"
      },
      "wkb_geometry": {
        "type": "Point",
        "coordinates": [
          8.5486517,
          7.6648883
        ]
      }
    },
    {
      "type": "Feature",
      "properties": {
        "id": 3556,
        "farm_category": "Crop Farm",
        "farm_type": "Commercial",
        "name": "Rice Farm",
        "region": "NC",
        "state": "BE"
      },
      "wkb_geometry": {
        "type": "Point",
        "coordinates": [
          9.721235,
          7.4312183
        ]
      }
    },
    {
      "type": "Feature",
      "properties": {
        "id": 3558,
        "farm_category": "Crop Farm",
        "farm_type": "Both",
        "name": "Simeon Orange Farm",
        "region": "NC",
        "state": "BE"
      },
      "wkb_geometry": {
        "type": "Point",
        "coordinates": [
          8.9433183,
          7.3843933
        ]
      }
    },
    {
      "type": "Feature",
      "properties": {
        "id": 3567,
        "farm_category": "Mixed Farm",
        "farm_type": "Both",
        "name": "Tsekaa Gabriel Orwuaga Orange Farm",
        "region": "NC",
        "state": "BE"
      },
      "wkb_geometry": {
        "type": "Point",
        "coordinates": [
          9.7137617,
          7.6144333
        ]
      }
    },
    {
      "type": "Feature",
      "properties": {
        "id": 3590,
        "farm_category": "Crop Farm",
        "farm_type": "Both",
        "name": "Food Crop Farm 17",
        "region": "NC",
        "state": "BE"
      },
      "wkb_geometry": {
        "type": "Point",
        "coordinates": [
          9.1350683,
          7.766935
        ]
      }
    },
    {
      "type": "Feature",
      "properties": {
        "id": 3632,
        "farm_category": "Mixed Farm",
        "farm_type": "Both",
        "name": "Weditso Nguher Orange Farm",
        "region": "NC",
        "state": "BE"
      },
      "wkb_geometry": {
        "type": "Point",
        "coordinates": [
          9.70759,
          7.620405
        ]
      }
    },
    {
      "type": "Feature",
      "properties": {
        "id": 3646,
        "farm_category": "Crop Farm",
        "farm_type": "Commercial",
        "name": "Orange Farm 7",
        "region": "NC",
        "state": "BE"
      },
      "wkb_geometry": {
        "type": "Point",
        "coordinates": [
          9.059638,
          7.3813293
        ]
      }
    },
    {
      "type": "Feature",
      "properties": {
        "id": 3682,
        "farm_category": "Mixed Farm",
        "farm_type": "Commercial",
        "name": "Rtd Alfred Ayon Farm",
        "region": "NC",
        "state": "BE"
      },
      "wkb_geometry": {
        "type": "Point",
        "coordinates": [
          8.675495,
          7.4028733
        ]
      }
    },
    {
      "type": "Feature",
      "properties": {
        "id": 3776,
        "farm_category": "Crop Farm",
        "farm_type": "Commercial",
        "name": "Cassava Farm 2",
        "region": "NC",
        "state": "BE"
      },
      "wkb_geometry": {
        "type": "Point",
        "coordinates": [
          9.4469187,
          7.3335851
        ]
      }
    },
    {
      "type": "Feature",
      "properties": {
        "id": 3843,
        "farm_category": "Crop Farm",
        "farm_type": "Both",
        "name": "Msughter Tseem Ground Nut Farm",
        "region": "NC",
        "state": "BE"
      },
      "wkb_geometry": {
        "type": "Point",
        "coordinates": [
          9.2351433,
          7.766715
        ]
      }
    },
    {
      "type": "Feature",
      "properties": {
        "id": 4045,
        "farm_category": "Crop Farm",
        "farm_type": "Commercial",
        "name": "Teerser Cassava Farm",
        "region": "NC",
        "state": "BE"
      },
      "wkb_geometry": {
        "type": "Point",
        "coordinates": [
          9.026945,
          7.0921467
        ]
      }
    },
    {
      "type": "Feature",
      "properties": {
        "id": 4074,
        "farm_category": "Mixed Farm",
        "farm_type": "Both",
        "name": "Cassava And Yam Farm",
        "region": "NC",
        "state": "BE"
      },
      "wkb_geometry": {
        "type": "Point",
        "coordinates": [
          7.952175,
          6.8159367
        ]
      }
    },
    {
      "type": "Feature",
      "properties": {
        "id": 4098,
        "farm_category": "Crop Farm",
        "farm_type": "Both",
        "name": "Ashelega Iorkyaan Yam Farm",
        "region": "NC",
        "state": "BE"
      },
      "wkb_geometry": {
        "type": "Point",
        "coordinates": [
          9.6649367,
          7.3881283
        ]
      }
    },
    {
      "type": "Feature",
      "properties": {
        "id": 4121,
        "farm_category": "Crop Farm",
        "farm_type": "Both",
        "name": "Orange Orchard 5",
        "region": "NC",
        "state": "BE"
      },
      "wkb_geometry": {
        "type": "Point",
        "coordinates": [
          8.8732367,
          7.64512
        ]
      }
    },
    {
      "type": "Feature",
      "properties": {
        "id": 4198,
        "farm_category": "Mixed Farm",
        "farm_type": "Subsistence",
        "name": "Cassava Farm 9",
        "region": "NC",
        "state": "BE"
      },
      "wkb_geometry": {
        "type": "Point",
        "coordinates": [
          8.1349417,
          7.1672867
        ]
      }
    },
    {
      "type": "Feature",
      "properties": {
        "id": 4252,
        "farm_category": "Crop Farm",
        "farm_type": "Both",
        "name": "Simon Made Orange Farm",
        "region": "NC",
        "state": "BE"
      },
      "wkb_geometry": {
        "type": "Point",
        "coordinates": [
          8.6490833,
          7.2448633
        ]
      }
    },
    {
      "type": "Feature",
      "properties": {
        "id": 4286,
        "farm_category": "Crop Farm",
        "farm_type": "Commercial",
        "name": "Food Crop Farm 4",
        "region": "NC",
        "state": "BE"
      },
      "wkb_geometry": {
        "type": "Point",
        "coordinates": [
          9.5136167,
          7.5769233
        ]
      }
    },
    {
      "type": "Feature",
      "properties": {
        "id": 4303,
        "farm_category": "Crop Farm",
        "farm_type": "Commercial",
        "name": "Orange Farm 17",
        "region": "NC",
        "state": "BE"
      },
      "wkb_geometry": {
        "type": "Point",
        "coordinates": [
          9.0683167,
          7.04244
        ]
      }
    },
    {
      "type": "Feature",
      "properties": {
        "id": 4319,
        "farm_category": "Crop Farm",
        "farm_type": "Both",
        "name": "Beneseed Farm Tse Mkenen",
        "region": "NC",
        "state": "BE"
      },
      "wkb_geometry": {
        "type": "Point",
        "coordinates": [
          8.117665,
          7.6936983
        ]
      }
    },
    {
      "type": "Feature",
      "properties": {
        "id": 4416,
        "farm_category": "Mixed Farm",
        "farm_type": "Commercial",
        "name": "Abo Orange Farm",
        "region": "NC",
        "state": "BE"
      },
      "wkb_geometry": {
        "type": "Point",
        "coordinates": [
          9.46956,
          7.459
        ]
      }
    },
    {
      "type": "Feature",
      "properties": {
        "id": 4418,
        "farm_category": "Mixed Farm",
        "farm_type": "Commercial",
        "name": "Iornenge Jingir Yam Farm",
        "region": "NC",
        "state": "BE"
      },
      "wkb_geometry": {
        "type": "Point",
        "coordinates": [
          9.55329,
          7.3028917
        ]
      }
    },
    {
      "type": "Feature",
      "properties": {
        "id": 4507,
        "farm_category": "Crop Farm",
        "farm_type": "Commercial",
        "name": "Yam Farm",
        "region": "NC",
        "state": "BE"
      },
      "wkb_geometry": {
        "type": "Point",
        "coordinates": [
          9.722855,
          7.4296033
        ]
      }
    },
    {
      "type": "Feature",
      "properties": {
        "id": 4537,
        "farm_category": "Mixed Farm",
        "farm_type": "Both",
        "name": "Ukanaka Farm",
        "region": "NC",
        "state": "BE"
      },
      "wkb_geometry": {
        "type": "Point",
        "coordinates": [
          8.8484967,
          7.2425867
        ]
      }
    },
    {
      "type": "Feature",
      "properties": {
        "id": 4619,
        "farm_category": "Unknown",
        "farm_type": "Commercial",
        "name": "Mr Aondo Kums Orange Farm",
        "region": "NC",
        "state": "BE"
      },
      "wkb_geometry": {
        "type": "Point",
        "coordinates": [
          8.8723517,
          7.195175
        ]
      }
    },
    {
      "type": "Feature",
      "properties": {
        "id": 4714,
        "farm_category": "Crop Farm",
        "farm_type": "Both",
        "name": "Asaar Atime Orange Orchard",
        "region": "NC",
        "state": "BE"
      },
      "wkb_geometry": {
        "type": "Point",
        "coordinates": [
          8.7837267,
          7.3430033
        ]
      }
    },
    {
      "type": "Feature",
      "properties": {
        "id": 4730,
        "farm_category": "Crop Farm",
        "farm_type": "Both",
        "name": "Tyogir Koon Orange And Cassava Farm Mbamtegh Mbayion",
        "region": "NC",
        "state": "BE"
      },
      "wkb_geometry": {
        "type": "Point",
        "coordinates": [
          8.8663017,
          7.3572333
        ]
      }
    },
    {
      "type": "Feature",
      "properties": {
        "id": 4746,
        "farm_category": "Mixed Farm",
        "farm_type": "Both",
        "name": "Dorcas Ayajough Farm",
        "region": "NC",
        "state": "BE"
      },
      "wkb_geometry": {
        "type": "Point",
        "coordinates": [
          8.7165333,
          7.3063117
        ]
      }
    },
    {
      "type": "Feature",
      "properties": {
        "id": 4794,
        "farm_category": "Animal Farm",
        "farm_type": "Commercial",
        "name": "Ocha Fishery And Poultry Farm",
        "region": "NC",
        "state": "BE"
      },
      "wkb_geometry": {
        "type": "Point",
        "coordinates": [
          8.14128,
          7.1709583
        ]
      }
    },
    {
      "type": "Feature",
      "properties": {
        "id": 4795,
        "farm_category": "Mixed Farm",
        "farm_type": "Both",
        "name": "Agwata Cashew Farm Mbadajo",
        "region": "NC",
        "state": "BE"
      },
      "wkb_geometry": {
        "type": "Point",
        "coordinates": [
          8.6915067,
          7.3569933
        ]
      }
    },
    {
      "type": "Feature",
      "properties": {
        "id": 4825,
        "farm_category": "Unknown",
        "farm_type": "Commercial",
        "name": "Orange Farm 8",
        "region": "NC",
        "state": "BE"
      },
      "wkb_geometry": {
        "type": "Point",
        "coordinates": [
          9.0701733,
          7.015675
        ]
      }
    },
    {
      "type": "Feature",
      "properties": {
        "id": 4957,
        "farm_category": "Crop Farm",
        "farm_type": "Both",
        "name": "Food Crop Farm 9",
        "region": "NC",
        "state": "BE"
      },
      "wkb_geometry": {
        "type": "Point",
        "coordinates": [
          9.1208781,
          7.792568
        ]
      }
    },
    {
      "type": "Feature",
      "properties": {
        "id": 4958,
        "farm_category": "Crop Farm",
        "farm_type": "Subsistence",
        "name": "Agber Ikondo Farm",
        "region": "NC",
        "state": "BE"
      },
      "wkb_geometry": {
        "type": "Point",
        "coordinates": [
          9.389845,
          7.2200383
        ]
      }
    },
    {
      "type": "Feature",
      "properties": {
        "id": 5007,
        "farm_category": "Crop Farm",
        "farm_type": "Both",
        "name": "Food Crop Farm 5",
        "region": "NC",
        "state": "BE"
      },
      "wkb_geometry": {
        "type": "Point",
        "coordinates": [
          9.1005213,
          7.4797126
        ]
      }
    },
    {
      "type": "Feature",
      "properties": {
        "id": 5112,
        "farm_category": "Mixed Farm",
        "farm_type": "Commercial",
        "name": "Ityo Ihongo Orange Farm",
        "region": "NC",
        "state": "BE"
      },
      "wkb_geometry": {
        "type": "Point",
        "coordinates": [
          8.8109983,
          7.0608483
        ]
      }
    },
    {
      "type": "Feature",
      "properties": {
        "id": 5152,
        "farm_category": "Crop Farm",
        "farm_type": "Both",
        "name": "Tortiv Fair Cashew Orchard Farm",
        "region": "NC",
        "state": "BE"
      },
      "wkb_geometry": {
        "type": "Point",
        "coordinates": [
          8.731485,
          7.417635
        ]
      }
    },
    {
      "type": "Feature",
      "properties": {
        "id": 5289,
        "farm_category": "Unknown",
        "farm_type": "Both",
        "name": "Orange Farm 4",
        "region": "NC",
        "state": "BE"
      },
      "wkb_geometry": {
        "type": "Point",
        "coordinates": [
          8.9390844,
          6.94054
        ]
      }
    },
    {
      "type": "Feature",
      "properties": {
        "id": 5302,
        "farm_category": "Animal Farm",
        "farm_type": "Commercial",
        "name": "Cattle Farm",
        "region": "NC",
        "state": "BE"
      },
      "wkb_geometry": {
        "type": "Point",
        "coordinates": [
          8.1240583,
          7.1747317
        ]
      }
    },
    {
      "type": "Feature",
      "properties": {
        "id": 5398,
        "farm_category": "Crop Farm",
        "farm_type": "Commercial",
        "name": "Orange Farm 6",
        "region": "NC",
        "state": "BE"
      },
      "wkb_geometry": {
        "type": "Point",
        "coordinates": [
          9.1575167,
          6.9950233
        ]
      }
    },
    {
      "type": "Feature",
      "properties": {
        "id": 5399,
        "farm_category": "Crop Farm",
        "farm_type": "Commercial",
        "name": "Orange Farm 5",
        "region": "NC",
        "state": "BE"
      },
      "wkb_geometry": {
        "type": "Point",
        "coordinates": [
          9.10561,
          7.065985
        ]
      }
    },
    {
      "type": "Feature",
      "properties": {
        "id": 5428,
        "farm_category": "Mixed Farm",
        "farm_type": "Commercial",
        "name": "Food Crop Farm",
        "region": "NC",
        "state": "BE"
      },
      "wkb_geometry": {
        "type": "Point",
        "coordinates": [
          9.68952,
          7.6458733
        ]
      }
    },
    {
      "type": "Feature",
      "properties": {
        "id": 5494,
        "farm_category": "Crop Farm",
        "farm_type": "Commercial",
        "name": "Cassava Farm Obena",
        "region": "NC",
        "state": "BE"
      },
      "wkb_geometry": {
        "type": "Point",
        "coordinates": [
          8.01244,
          7.4666383
        ]
      }
    },
    {
      "type": "Feature",
      "properties": {
        "id": 5498,
        "farm_category": "Crop Farm",
        "farm_type": "Both",
        "name": "Fayum Amaatimin Orange Farm",
        "region": "NC",
        "state": "BE"
      },
      "wkb_geometry": {
        "type": "Point",
        "coordinates": [
          9.02495,
          7.4048683
        ]
      }
    },
    {
      "type": "Feature",
      "properties": {
        "id": 5838,
        "farm_category": "Mixed Farm",
        "farm_type": "Both",
        "name": "Baba Adzakpe Farm",
        "region": "NC",
        "state": "BE"
      },
      "wkb_geometry": {
        "type": "Point",
        "coordinates": [
          9.21743,
          6.80934
        ]
      }
    },
    {
      "type": "Feature",
      "properties": {
        "id": 5903,
        "farm_category": "Mixed Farm",
        "farm_type": "Both",
        "name": "Akaha Jande Farm",
        "region": "NC",
        "state": "BE"
      },
      "wkb_geometry": {
        "type": "Point",
        "coordinates": [
          9.3245383,
          7.289995
        ]
      }
    },
    {
      "type": "Feature",
      "properties": {
        "id": 6044,
        "farm_category": "Crop Farm",
        "farm_type": "Both",
        "name": "Aooiyol Vitalis Orange Farm",
        "region": "NC",
        "state": "BE"
      },
      "wkb_geometry": {
        "type": "Point",
        "coordinates": [
          8.4548267,
          7.2669283
        ]
      }
    },
    {
      "type": "Feature",
      "properties": {
        "id": 6136,
        "farm_category": "Crop Farm",
        "farm_type": "Commercial",
        "name": "Yam Farm",
        "region": "NC",
        "state": "BE"
      },
      "wkb_geometry": {
        "type": "Point",
        "coordinates": [
          9.097275,
          7.4379867
        ]
      }
    },
    {
      "type": "Feature",
      "properties": {
        "id": 6141,
        "farm_category": "Crop Farm",
        "farm_type": "Commercial",
        "name": "Tyowase Pilakya Orange Farm",
        "region": "NC",
        "state": "BE"
      },
      "wkb_geometry": {
        "type": "Point",
        "coordinates": [
          8.8202733,
          7.291615
        ]
      }
    },
    {
      "type": "Feature",
      "properties": {
        "id": 6203,
        "farm_category": "Crop Farm",
        "farm_type": "Both",
        "name": "Oradi Samuel Orange Orchard",
        "region": "NC",
        "state": "BE"
      },
      "wkb_geometry": {
        "type": "Point",
        "coordinates": [
          8.8405167,
          7.451985
        ]
      }
    },
    {
      "type": "Feature",
      "properties": {
        "id": 6221,
        "farm_category": "Crop Farm",
        "farm_type": "Both",
        "name": "Kwaghber Tsezugh Palm Farm",
        "region": "NC",
        "state": "BE"
      },
      "wkb_geometry": {
        "type": "Point",
        "coordinates": [
          8.6666483,
          7.2764133
        ]
      }
    },
    {
      "type": "Feature",
      "properties": {
        "id": 6234,
        "farm_category": "Unknown",
        "farm_type": "Commercial",
        "name": "Orange Farm 13",
        "region": "NC",
        "state": "BE"
      },
      "wkb_geometry": {
        "type": "Point",
        "coordinates": [
          9.0670583,
          7.0141767
        ]
      }
    },
    {
      "type": "Feature",
      "properties": {
        "id": 6279,
        "farm_category": "Mixed Farm",
        "farm_type": "Both",
        "name": "Ornguze Orange Farm",
        "region": "NC",
        "state": "BE"
      },
      "wkb_geometry": {
        "type": "Point",
        "coordinates": [
          8.9222965,
          7.3800534
        ]
      }
    },
    {
      "type": "Feature",
      "properties": {
        "id": 6296,
        "farm_category": "Crop Farm",
        "farm_type": "Commercial",
        "name": "Terna Pelakya Orange Farm",
        "region": "NC",
        "state": "BE"
      },
      "wkb_geometry": {
        "type": "Point",
        "coordinates": [
          8.820565,
          7.2916183
        ]
      }
    },
    {
      "type": "Feature",
      "properties": {
        "id": 6382,
        "farm_category": "Crop Farm",
        "farm_type": "Commercial",
        "name": "Kator Orange Farm",
        "region": "NC",
        "state": "BE"
      },
      "wkb_geometry": {
        "type": "Point",
        "coordinates": [
          9.605706,
          7.4567038
        ]
      }
    },
    {
      "type": "Feature",
      "properties": {
        "id": 6573,
        "farm_category": "Animal Farm",
        "farm_type": "Commercial",
        "name": "Mr Iortyoms Farm",
        "region": "NC",
        "state": "BE"
      },
      "wkb_geometry": {
        "type": "Point",
        "coordinates": [
          9.0166233,
          7.2023467
        ]
      }
    },
    {
      "type": "Feature",
      "properties": {
        "id": 6625,
        "farm_category": "Mixed Farm",
        "farm_type": "Both",
        "name": "Umburga Farm",
        "region": "NC",
        "state": "BE"
      },
      "wkb_geometry": {
        "type": "Point",
        "coordinates": [
          9.6612833,
          7.5893533
        ]
      }
    },
    {
      "type": "Feature",
      "properties": {
        "id": 6736,
        "farm_category": "Crop Farm",
        "farm_type": "Commercial",
        "name": "Yuwar Tarshi Orange Orchard",
        "region": "NC",
        "state": "BE"
      },
      "wkb_geometry": {
        "type": "Point",
        "coordinates": [
          9.0125767,
          6.889675
        ]
      }
    },
    {
      "type": "Feature",
      "properties": {
        "id": 6765,
        "farm_category": "Crop Farm",
        "farm_type": "Both",
        "name": "Mtomga Mtico Mathias",
        "region": "NC",
        "state": "BE"
      },
      "wkb_geometry": {
        "type": "Point",
        "coordinates": [
          9.5701267,
          7.5032467
        ]
      }
    },
    {
      "type": "Feature",
      "properties": {
        "id": 6798,
        "farm_category": "Mixed Farm",
        "farm_type": "Both",
        "name": "Orange Farm And Yam Farm",
        "region": "NC",
        "state": "BE"
      },
      "wkb_geometry": {
        "type": "Point",
        "coordinates": [
          9.5019083,
          7.38824
        ]
      }
    },
    {
      "type": "Feature",
      "properties": {
        "id": 7009,
        "farm_category": "Crop Farm",
        "farm_type": "Both",
        "name": "Orange Farm 2",
        "region": "NC",
        "state": "BE"
      },
      "wkb_geometry": {
        "type": "Point",
        "coordinates": [
          8.5244767,
          7.2526
        ]
      }
    },
    {
      "type": "Feature",
      "properties": {
        "id": 7024,
        "farm_category": "Mixed Farm",
        "farm_type": "Commercial",
        "name": "Ifyan Yanum Orange Farm",
        "region": "NC",
        "state": "BE"
      },
      "wkb_geometry": {
        "type": "Point",
        "coordinates": [
          8.7678983,
          7.6412117
        ]
      }
    },
    {
      "type": "Feature",
      "properties": {
        "id": 7026,
        "farm_category": "Animal Farm",
        "farm_type": "Commercial",
        "name": "Hon Abua Yaji Pig Farm",
        "region": "NC",
        "state": "BE"
      },
      "wkb_geometry": {
        "type": "Point",
        "coordinates": [
          8.97045,
          7.276785
        ]
      }
    },
    {
      "type": "Feature",
      "properties": {
        "id": 7086,
        "farm_category": "Crop Farm",
        "farm_type": "Commercial",
        "name": "Orum Orchard Farm",
        "region": "NC",
        "state": "BE"
      },
      "wkb_geometry": {
        "type": "Point",
        "coordinates": [
          9.1464083,
          7.3672517
        ]
      }
    },
    {
      "type": "Feature",
      "properties": {
        "id": 7431,
        "farm_category": "Mixed Farm",
        "farm_type": "Commercial",
        "name": "Akera Simon Orange Farm",
        "region": "NC",
        "state": "BE"
      },
      "wkb_geometry": {
        "type": "Point",
        "coordinates": [
          8.7308583,
          7.5165967
        ]
      }
    },
    {
      "type": "Feature",
      "properties": {
        "id": 7437,
        "farm_category": "Crop Farm",
        "farm_type": "Commercial",
        "name": "Oil Palm Farm",
        "region": "NC",
        "state": "BE"
      },
      "wkb_geometry": {
        "type": "Point",
        "coordinates": [
          9.0260017,
          7.4942767
        ]
      }
    },
    {
      "type": "Feature",
      "properties": {
        "id": 7454,
        "farm_category": "Crop Farm",
        "farm_type": "Commercial",
        "name": "Orange Orchard 4",
        "region": "NC",
        "state": "BE"
      },
      "wkb_geometry": {
        "type": "Point",
        "coordinates": [
          9.10726,
          6.9251167
        ]
      }
    },
    {
      "type": "Feature",
      "properties": {
        "id": 7458,
        "farm_category": "Mixed Farm",
        "farm_type": "Commercial",
        "name": "Orange Farm Mbagoo",
        "region": "NC",
        "state": "BE"
      },
      "wkb_geometry": {
        "type": "Point",
        "coordinates": [
          8.92622,
          7.0451867
        ]
      }
    },
    {
      "type": "Feature",
      "properties": {
        "id": 7459,
        "farm_category": "Crop Farm",
        "farm_type": "Commercial",
        "name": "Guinea Corn Farm Catholic Church",
        "region": "NC",
        "state": "BE"
      },
      "wkb_geometry": {
        "type": "Point",
        "coordinates": [
          9.478145,
          7.2971033
        ]
      }
    },
    {
      "type": "Feature",
      "properties": {
        "id": 7467,
        "farm_category": "Mixed Farm",
        "farm_type": "Commercial",
        "name": "Aaver Gbinde Orange Farm",
        "region": "NC",
        "state": "BE"
      },
      "wkb_geometry": {
        "type": "Point",
        "coordinates": [
          8.7463983,
          7.2679133
        ]
      }
    },
    {
      "type": "Feature",
      "properties": {
        "id": 7494,
        "farm_category": "Mixed Farm",
        "farm_type": "Commercial",
        "name": "Medium Orange Farm",
        "region": "NC",
        "state": "BE"
      },
      "wkb_geometry": {
        "type": "Point",
        "coordinates": [
          9.1241483,
          7.167875
        ]
      }
    },
    {
      "type": "Feature",
      "properties": {
        "id": 7526,
        "farm_category": "Crop Farm",
        "farm_type": "Subsistence",
        "name": "Ugboju Omaga Farm",
        "region": "NC",
        "state": "BE"
      },
      "wkb_geometry": {
        "type": "Point",
        "coordinates": [
          8.0748483,
          7.8288517
        ]
      }
    },
    {
      "type": "Feature",
      "properties": {
        "id": 7632,
        "farm_category": "Crop Farm",
        "farm_type": "Commercial",
        "name": "Dennis Apeakaa Orchard",
        "region": "NC",
        "state": "BE"
      },
      "wkb_geometry": {
        "type": "Point",
        "coordinates": [
          9.3188467,
          7.4508717
        ]
      }
    },
    {
      "type": "Feature",
      "properties": {
        "id": 7692,
        "farm_category": "Crop Farm",
        "farm_type": "Both",
        "name": "Akor Shaager Orange Farm",
        "region": "NC",
        "state": "BE"
      },
      "wkb_geometry": {
        "type": "Point",
        "coordinates": [
          8.9775417,
          7.2957683
        ]
      }
    },
    {
      "type": "Feature",
      "properties": {
        "id": 7706,
        "farm_category": "Crop Farm",
        "farm_type": "Both",
        "name": "Mbaga Farm",
        "region": "NC",
        "state": "BE"
      },
      "wkb_geometry": {
        "type": "Point",
        "coordinates": [
          9.51271,
          6.58178
        ]
      }
    },
    {
      "type": "Feature",
      "properties": {
        "id": 7745,
        "farm_category": "Crop Farm",
        "farm_type": "Both",
        "name": "Tyolumun Farm",
        "region": "NC",
        "state": "BE"
      },
      "wkb_geometry": {
        "type": "Point",
        "coordinates": [
          8.9801067,
          6.8950383
        ]
      }
    },
    {
      "type": "Feature",
      "properties": {
        "id": 7845,
        "farm_category": "Animal Farm",
        "farm_type": "Commercial",
        "name": "Aerem Farm",
        "region": "NC",
        "state": "BE"
      },
      "wkb_geometry": {
        "type": "Point",
        "coordinates": [
          9.65788,
          7.39234
        ]
      }
    },
    {
      "type": "Feature",
      "properties": {
        "id": 7877,
        "farm_category": "Mixed Farm",
        "farm_type": "Commercial",
        "name": "Orange Orchard 1",
        "region": "NC",
        "state": "BE"
      },
      "wkb_geometry": {
        "type": "Point",
        "coordinates": [
          8.68145,
          7.0952083
        ]
      }
    },
    {
      "type": "Feature",
      "properties": {
        "id": 7882,
        "farm_category": "Crop Farm",
        "farm_type": "Subsistence",
        "name": "Cassava Farm 2",
        "region": "NC",
        "state": "BE"
      },
      "wkb_geometry": {
        "type": "Point",
        "coordinates": [
          9.1442533,
          7.4830683
        ]
      }
    },
    {
      "type": "Feature",
      "properties": {
        "id": 7907,
        "farm_category": "Mixed Farm",
        "farm_type": "Commercial",
        "name": "Igbalagh Songu Farm",
        "region": "NC",
        "state": "BE"
      },
      "wkb_geometry": {
        "type": "Point",
        "coordinates": [
          9.0751433,
          7.2393067
        ]
      }
    },
    {
      "type": "Feature",
      "properties": {
        "id": 8064,
        "farm_category": "Unknown",
        "farm_type": "Commercial",
        "name": "David Anade Farm",
        "region": "NC",
        "state": "BE"
      },
      "wkb_geometry": {
        "type": "Point",
        "coordinates": [
          8.847105,
          7.242125
        ]
      }
    },
    {
      "type": "Feature",
      "properties": {
        "id": 8211,
        "farm_category": "Crop Farm",
        "farm_type": "Commercial",
        "name": "Iorlumun Orange Orchard",
        "region": "NC",
        "state": "BE"
      },
      "wkb_geometry": {
        "type": "Point",
        "coordinates": [
          8.971935,
          6.9471217
        ]
      }
    },
    {
      "type": "Feature",
      "properties": {
        "id": 8218,
        "farm_category": "Mixed Farm",
        "farm_type": "Commercial",
        "name": "Denekaa Korna Farm",
        "region": "NC",
        "state": "BE"
      },
      "wkb_geometry": {
        "type": "Point",
        "coordinates": [
          8.7382233,
          7.5375533
        ]
      }
    },
    {
      "type": "Feature",
      "properties": {
        "id": 8225,
        "farm_category": "Crop Farm",
        "farm_type": "Subsistence",
        "name": "Deba Farm",
        "region": "NC",
        "state": "BE"
      },
      "wkb_geometry": {
        "type": "Point",
        "coordinates": [
          9.3405783,
          7.5706083
        ]
      }
    },
    {
      "type": "Feature",
      "properties": {
        "id": 8321,
        "farm_category": "Crop Farm",
        "farm_type": "Subsistence",
        "name": "Food Crop Farm",
        "region": "NC",
        "state": "BE"
      },
      "wkb_geometry": {
        "type": "Point",
        "coordinates": [
          7.917205,
          7.4741417
        ]
      }
    },
    {
      "type": "Feature",
      "properties": {
        "id": 8401,
        "farm_category": "Crop Farm",
        "farm_type": "Commercial",
        "name": "Orange Orchard 5",
        "region": "NC",
        "state": "BE"
      },
      "wkb_geometry": {
        "type": "Point",
        "coordinates": [
          9.045185,
          6.9824233
        ]
      }
    },
    {
      "type": "Feature",
      "properties": {
        "id": 8471,
        "farm_category": "Crop Farm",
        "farm_type": "Both",
        "name": "Zaki Shon Farm",
        "region": "NC",
        "state": "BE"
      },
      "wkb_geometry": {
        "type": "Point",
        "coordinates": [
          8.787725,
          7.3563833
        ]
      }
    },
    {
      "type": "Feature",
      "properties": {
        "id": 8488,
        "farm_category": "Mixed Farm",
        "farm_type": "Both",
        "name": "Salem Yam Farm",
        "region": "NC",
        "state": "BE"
      },
      "wkb_geometry": {
        "type": "Point",
        "coordinates": [
          9.4472383,
          7.1008717
        ]
      }
    },
    {
      "type": "Feature",
      "properties": {
        "id": 8492,
        "farm_category": "Mixed Farm",
        "farm_type": "Both",
        "name": "Sewuese Cassava Farm",
        "region": "NC",
        "state": "BE"
      },
      "wkb_geometry": {
        "type": "Point",
        "coordinates": [
          9.6233633,
          7.2313733
        ]
      }
    },
    {
      "type": "Feature",
      "properties": {
        "id": 8509,
        "farm_category": "Unknown",
        "farm_type": "Commercial",
        "name": "Orange Farm 9",
        "region": "NC",
        "state": "BE"
      },
      "wkb_geometry": {
        "type": "Point",
        "coordinates": [
          9.0669717,
          7.0231017
        ]
      }
    },
    {
      "type": "Feature",
      "properties": {
        "id": 8546,
        "farm_category": "Unknown",
        "farm_type": "Commercial",
        "name": "Mzor Cashews Farm",
        "region": "NC",
        "state": "BE"
      },
      "wkb_geometry": {
        "type": "Point",
        "coordinates": [
          9.1588083,
          6.7830467
        ]
      }
    },
    {
      "type": "Feature",
      "properties": {
        "id": 8656,
        "farm_category": "Crop Farm",
        "farm_type": "Commercial",
        "name": "Sough Orange Farm",
        "region": "NC",
        "state": "BE"
      },
      "wkb_geometry": {
        "type": "Point",
        "coordinates": [
          9.08523,
          7.1414583
        ]
      }
    },
    {
      "type": "Feature",
      "properties": {
        "id": 8680,
        "farm_category": "Mixed Farm",
        "farm_type": "Commercial",
        "name": "Chewu Farm",
        "region": "NC",
        "state": "BE"
      },
      "wkb_geometry": {
        "type": "Point",
        "coordinates": [
          8.034925,
          7.4771083
        ]
      }
    },
    {
      "type": "Feature",
      "properties": {
        "id": 8872,
        "farm_category": "Crop Farm",
        "farm_type": "Both",
        "name": "Apkenpuun Oreza Orange Farm",
        "region": "NC",
        "state": "BE"
      },
      "wkb_geometry": {
        "type": "Point",
        "coordinates": [
          8.8311583,
          7.432905
        ]
      }
    },
    {
      "type": "Feature",
      "properties": {
        "id": 8967,
        "farm_category": "Crop Farm",
        "farm_type": "Both",
        "name": "Food Crop Farm 3",
        "region": "NC",
        "state": "BE"
      },
      "wkb_geometry": {
        "type": "Point",
        "coordinates": [
          9.1013483,
          7.4788533
        ]
      }
    },
    {
      "type": "Feature",
      "properties": {
        "id": 8979,
        "farm_category": "Crop Farm",
        "farm_type": "Subsistence",
        "name": "Aondofa Yam Farm",
        "region": "NC",
        "state": "BE"
      },
      "wkb_geometry": {
        "type": "Point",
        "coordinates": [
          9.4312717,
          7.4071867
        ]
      }
    },
    {
      "type": "Feature",
      "properties": {
        "id": 9092,
        "farm_category": "Mixed Farm",
        "farm_type": "Commercial",
        "name": "Orange Farm Tse Kukaun",
        "region": "NC",
        "state": "BE"
      },
      "wkb_geometry": {
        "type": "Point",
        "coordinates": [
          9.6716267,
          7.37015
        ]
      }
    },
    {
      "type": "Feature",
      "properties": {
        "id": 9112,
        "farm_category": "Crop Farm",
        "farm_type": "Both",
        "name": "Food Crop Farm 7",
        "region": "NC",
        "state": "BE"
      },
      "wkb_geometry": {
        "type": "Point",
        "coordinates": [
          9.180445,
          7.43671
        ]
      }
    },
    {
      "type": "Feature",
      "properties": {
        "id": 9213,
        "farm_category": "Crop Farm",
        "farm_type": "Both",
        "name": "Food Crop Farm 4",
        "region": "NC",
        "state": "BE"
      },
      "wkb_geometry": {
        "type": "Point",
        "coordinates": [
          9.1030663,
          7.4795486
        ]
      }
    },
    {
      "type": "Feature",
      "properties": {
        "id": 9287,
        "farm_category": "Animal Farm",
        "farm_type": "Commercial",
        "name": "Gande Goat Farm",
        "region": "NC",
        "state": "BE"
      },
      "wkb_geometry": {
        "type": "Point",
        "coordinates": [
          9.2066633,
          7.290905
        ]
      }
    },
    {
      "type": "Feature",
      "properties": {
        "id": 9348,
        "farm_category": "Mixed Farm",
        "farm_type": "Both",
        "name": "Yam Farm 1",
        "region": "NC",
        "state": "BE"
      },
      "wkb_geometry": {
        "type": "Point",
        "coordinates": [
          9.6131283,
          7.16732
        ]
      }
    },
    {
      "type": "Feature",
      "properties": {
        "id": 9383,
        "farm_category": "Mixed Farm",
        "farm_type": "Commercial",
        "name": "Orchard 17",
        "region": "NC",
        "state": "BE"
      },
      "wkb_geometry": {
        "type": "Point",
        "coordinates": [
          8.6169583,
          7.35929
        ]
      }
    },
    {
      "type": "Feature",
      "properties": {
        "id": 9436,
        "farm_category": "Mixed Farm",
        "farm_type": "Commercial",
        "name": "Tyoapine Akaanan Orange Orchard Farm",
        "region": "NC",
        "state": "BE"
      },
      "wkb_geometry": {
        "type": "Point",
        "coordinates": [
          8.6770267,
          7.2909883
        ]
      }
    },
    {
      "type": "Feature",
      "properties": {
        "id": 9442,
        "farm_category": "Crop Farm",
        "farm_type": "Commercial",
        "name": "Kor Farm",
        "region": "NC",
        "state": "BE"
      },
      "wkb_geometry": {
        "type": "Point",
        "coordinates": [
          8.193005,
          7.6128467
        ]
      }
    },
    {
      "type": "Feature",
      "properties": {
        "id": 9446,
        "farm_category": "Unknown",
        "farm_type": "Both",
        "name": "Gagus Farm",
        "region": "NC",
        "state": "BE"
      },
      "wkb_geometry": {
        "type": "Point",
        "coordinates": [
          9.35542,
          7.4240817
        ]
      }
    },
    {
      "type": "Feature",
      "properties": {
        "id": 9508,
        "farm_category": "Crop Farm",
        "farm_type": "Both",
        "name": "Food Crop Farm 10",
        "region": "NC",
        "state": "BE"
      },
      "wkb_geometry": {
        "type": "Point",
        "coordinates": [
          9.1215008,
          7.7750126
        ]
      }
    },
    {
      "type": "Feature",
      "properties": {
        "id": 9581,
        "farm_category": "Crop Farm",
        "farm_type": "Commercial",
        "name": "Yongu Ageva Cassava Farm",
        "region": "NC",
        "state": "BE"
      },
      "wkb_geometry": {
        "type": "Point",
        "coordinates": [
          8.978645,
          7.4592317
        ]
      }
    },
    {
      "type": "Feature",
      "properties": {
        "id": 9685,
        "farm_category": "Crop Farm",
        "farm_type": "Both",
        "name": "Ayaga Farm",
        "region": "NC",
        "state": "BE"
      },
      "wkb_geometry": {
        "type": "Point",
        "coordinates": [
          9.5480383,
          7.3910333
        ]
      }
    },
    {
      "type": "Feature",
      "properties": {
        "id": 9737,
        "farm_category": "Mixed Farm",
        "farm_type": "Commercial",
        "name": "Ukuza Igba Orange Farm",
        "region": "NC",
        "state": "BE"
      },
      "wkb_geometry": {
        "type": "Point",
        "coordinates": [
          9.5053017,
          7.3957417
        ]
      }
    },
    {
      "type": "Feature",
      "properties": {
        "id": 9760,
        "farm_category": "Mixed Farm",
        "farm_type": "Commercial",
        "name": "Aondofa Shagu Mbaajo",
        "region": "NC",
        "state": "BE"
      },
      "wkb_geometry": {
        "type": "Point",
        "coordinates": [
          8.8556433,
          7.3175067
        ]
      }
    },
    {
      "type": "Feature",
      "properties": {
        "id": 9859,
        "farm_category": "Crop Farm",
        "farm_type": "Both",
        "name": "Hon Abua Yaji Orange Farm",
        "region": "NC",
        "state": "BE"
      },
      "wkb_geometry": {
        "type": "Point",
        "coordinates": [
          8.97017,
          7.2773217
        ]
      }
    },
    {
      "type": "Feature",
      "properties": {
        "id": 9924,
        "farm_category": "Crop Farm",
        "farm_type": "Both",
        "name": "Ornumbue Vanger Year Farm",
        "region": "NC",
        "state": "BE"
      },
      "wkb_geometry": {
        "type": "Point",
        "coordinates": [
          8.759385,
          7.5713267
        ]
      }
    },
    {
      "type": "Feature",
      "properties": {
        "id": 9925,
        "farm_category": "Mixed Farm",
        "farm_type": "Commercial",
        "name": "Orange Farm 9",
        "region": "NC",
        "state": "BE"
      },
      "wkb_geometry": {
        "type": "Point",
        "coordinates": [
          8.8581833,
          7.106295
        ]
      }
    },
    {
      "type": "Feature",
      "properties": {
        "id": 9933,
        "farm_category": "Mixed Farm",
        "farm_type": "Commercial",
        "name": "Goda Kutole Farm",
        "region": "NC",
        "state": "BE"
      },
      "wkb_geometry": {
        "type": "Point",
        "coordinates": [
          9.506105,
          7.3970917
        ]
      }
    },
    {
      "type": "Feature",
      "properties": {
        "id": 9942,
        "farm_category": "Mixed Farm",
        "farm_type": "Both",
        "name": "Torbee Aondoawasem Orange Farm",
        "region": "NC",
        "state": "BE"
      },
      "wkb_geometry": {
        "type": "Point",
        "coordinates": [
          9.6139217,
          7.5762167
        ]
      }
    },
    {
      "type": "Feature",
      "properties": {
        "id": 10001,
        "farm_category": "Crop Farm",
        "farm_type": "Both",
        "name": "Yam And Cassava Farm 2",
        "region": "NC",
        "state": "BE"
      },
      "wkb_geometry": {
        "type": "Point",
        "coordinates": [
          9.3474567,
          7.5424283
        ]
      }
    },
    {
      "type": "Feature",
      "properties": {
        "id": 10002,
        "farm_category": "Animal Farm",
        "farm_type": "Both",
        "name": "Mrs Emmanuel Kindiis Poultry Farm",
        "region": "NC",
        "state": "BE"
      },
      "wkb_geometry": {
        "type": "Point",
        "coordinates": [
          9.21719,
          6.747335
        ]
      }
    },
    {
      "type": "Feature",
      "properties": {
        "id": 10040,
        "farm_category": "Mixed Farm",
        "farm_type": "Commercial",
        "name": "Orchard 2",
        "region": "NC",
        "state": "BE"
      },
      "wkb_geometry": {
        "type": "Point",
        "coordinates": [
          9.4525167,
          7.334095
        ]
      }
    },
    {
      "type": "Feature",
      "properties": {
        "id": 10091,
        "farm_category": "Unknown",
        "farm_type": "Both",
        "name": "Terkaa Tsonuv Orange Farm",
        "region": "NC",
        "state": "BE"
      },
      "wkb_geometry": {
        "type": "Point",
        "coordinates": [
          8.69627,
          7.2379217
        ]
      }
    },
    {
      "type": "Feature",
      "properties": {
        "id": 10100,
        "farm_category": "Animal Farm",
        "farm_type": "Both",
        "name": "Orange Farm",
        "region": "NC",
        "state": "BE"
      },
      "wkb_geometry": {
        "type": "Point",
        "coordinates": [
          9.061855,
          6.9806742
        ]
      }
    },
    {
      "type": "Feature",
      "properties": {
        "id": 10147,
        "farm_category": "Crop Farm",
        "farm_type": "Both",
        "name": "Godwin Oradi Orange Farm",
        "region": "NC",
        "state": "BE"
      },
      "wkb_geometry": {
        "type": "Point",
        "coordinates": [
          8.842675,
          7.4491667
        ]
      }
    },
    {
      "type": "Feature",
      "properties": {
        "id": 10236,
        "farm_category": "Mixed Farm",
        "farm_type": "Commercial",
        "name": "Boyue Orange Farm",
        "region": "NC",
        "state": "BE"
      },
      "wkb_geometry": {
        "type": "Point",
        "coordinates": [
          9.206835,
          6.9849267
        ]
      }
    },
    {
      "type": "Feature",
      "properties": {
        "id": 10245,
        "farm_category": "Mixed Farm",
        "farm_type": "Both",
        "name": "Oranges Mangos Farm",
        "region": "NC",
        "state": "BE"
      },
      "wkb_geometry": {
        "type": "Point",
        "coordinates": [
          8.97786,
          7.342765
        ]
      }
    },
    {
      "type": "Feature",
      "properties": {
        "id": 10292,
        "farm_category": "Crop Farm",
        "farm_type": "Commercial",
        "name": "Orchard",
        "region": "NC",
        "state": "BE"
      },
      "wkb_geometry": {
        "type": "Point",
        "coordinates": [
          8.9524067,
          7.3357617
        ]
      }
    },
    {
      "type": "Feature",
      "properties": {
        "id": 10425,
        "farm_category": "Mixed Farm",
        "farm_type": "Commercial",
        "name": "Orchard 10",
        "region": "NC",
        "state": "BE"
      },
      "wkb_geometry": {
        "type": "Point",
        "coordinates": [
          8.632415,
          7.3500933
        ]
      }
    },
    {
      "type": "Feature",
      "properties": {
        "id": 10582,
        "farm_category": "Crop Farm",
        "farm_type": "Both",
        "name": "Akaazua Kyur Orange Farm",
        "region": "NC",
        "state": "BE"
      },
      "wkb_geometry": {
        "type": "Point",
        "coordinates": [
          8.629835,
          7.4337567
        ]
      }
    },
    {
      "type": "Feature",
      "properties": {
        "id": 10599,
        "farm_category": "Crop Farm",
        "farm_type": "Subsistence",
        "name": "Uncle Pees Farm",
        "region": "NC",
        "state": "BE"
      },
      "wkb_geometry": {
        "type": "Point",
        "coordinates": [
          9.29395,
          7.187545
        ]
      }
    },
    {
      "type": "Feature",
      "properties": {
        "id": 10624,
        "farm_category": "Mixed Farm",
        "farm_type": "Commercial",
        "name": "Orange Farm Mtewen",
        "region": "NC",
        "state": "BE"
      },
      "wkb_geometry": {
        "type": "Point",
        "coordinates": [
          9.5996817,
          7.633555
        ]
      }
    },
    {
      "type": "Feature",
      "properties": {
        "id": 10720,
        "farm_category": "Crop Farm",
        "farm_type": "Both",
        "name": "Yam And Cassava Farm 1",
        "region": "NC",
        "state": "BE"
      },
      "wkb_geometry": {
        "type": "Point",
        "coordinates": [
          9.3595317,
          7.5449567
        ]
      }
    },
    {
      "type": "Feature",
      "properties": {
        "id": 10748,
        "farm_category": "Crop Farm",
        "farm_type": "Both",
        "name": "Tse Ingbian Rice Farm",
        "region": "NC",
        "state": "BE"
      },
      "wkb_geometry": {
        "type": "Point",
        "coordinates": [
          9.3786533,
          7.5863167
        ]
      }
    },
    {
      "type": "Feature",
      "properties": {
        "id": 10768,
        "farm_category": "Crop Farm",
        "farm_type": "Commercial",
        "name": "Kwembe Orange Farm",
        "region": "NC",
        "state": "BE"
      },
      "wkb_geometry": {
        "type": "Point",
        "coordinates": [
          9.0824483,
          7.14087
        ]
      }
    },
    {
      "type": "Feature",
      "properties": {
        "id": 10803,
        "farm_category": "Mixed Farm",
        "farm_type": "Commercial",
        "name": "Orchard Farm",
        "region": "NC",
        "state": "BE"
      },
      "wkb_geometry": {
        "type": "Point",
        "coordinates": [
          9.01861,
          7.18751
        ]
      }
    },
    {
      "type": "Feature",
      "properties": {
        "id": 10814,
        "farm_category": "Mixed Farm",
        "farm_type": "Both",
        "name": "Ager Farm",
        "region": "NC",
        "state": "BE"
      },
      "wkb_geometry": {
        "type": "Point",
        "coordinates": [
          8.9251117,
          7.3696167
        ]
      }
    },
    {
      "type": "Feature",
      "properties": {
        "id": 10841,
        "farm_category": "Mixed Farm",
        "farm_type": "Commercial",
        "name": "Akume Daniel Usai",
        "region": "NC",
        "state": "BE"
      },
      "wkb_geometry": {
        "type": "Point",
        "coordinates": [
          8.6257117,
          7.3766183
        ]
      }
    },
    {
      "type": "Feature",
      "properties": {
        "id": 11014,
        "farm_category": "Mixed Farm",
        "farm_type": "Commercial",
        "name": "Orange Farm 4",
        "region": "NC",
        "state": "BE"
      },
      "wkb_geometry": {
        "type": "Point",
        "coordinates": [
          9.6299333,
          7.554715
        ]
      }
    },
    {
      "type": "Feature",
      "properties": {
        "id": 11061,
        "farm_category": "Crop Farm",
        "farm_type": "Both",
        "name": "Tersoo Shiwua Orange Farm",
        "region": "NC",
        "state": "BE"
      },
      "wkb_geometry": {
        "type": "Point",
        "coordinates": [
          8.9785367,
          6.8945533
        ]
      }
    },
    {
      "type": "Feature",
      "properties": {
        "id": 11220,
        "farm_category": "Crop Farm",
        "farm_type": "Both",
        "name": "Mango And Orange Ochard",
        "region": "NC",
        "state": "BE"
      },
      "wkb_geometry": {
        "type": "Point",
        "coordinates": [
          8.85508,
          7.5801183
        ]
      }
    },
    {
      "type": "Feature",
      "properties": {
        "id": 11273,
        "farm_category": "Crop Farm",
        "farm_type": "Both",
        "name": "Bashi Michael Orange Farm",
        "region": "NC",
        "state": "BE"
      },
      "wkb_geometry": {
        "type": "Point",
        "coordinates": [
          8.9761317,
          7.27931
        ]
      }
    },
    {
      "type": "Feature",
      "properties": {
        "id": 11294,
        "farm_category": "Crop Farm",
        "farm_type": "Commercial",
        "name": "Orange Farm 14",
        "region": "NC",
        "state": "BE"
      },
      "wkb_geometry": {
        "type": "Point",
        "coordinates": [
          9.0801433,
          7.05117
        ]
      }
    },
    {
      "type": "Feature",
      "properties": {
        "id": 11329,
        "farm_category": "Crop Farm",
        "farm_type": "Both",
        "name": "Augustine Pine Orange Farm",
        "region": "NC",
        "state": "BE"
      },
      "wkb_geometry": {
        "type": "Point",
        "coordinates": [
          8.674585,
          7.2815667
        ]
      }
    },
    {
      "type": "Feature",
      "properties": {
        "id": 11355,
        "farm_category": "Unknown",
        "farm_type": "Commercial",
        "name": "Oil Palm Farm",
        "region": "NC",
        "state": "BE"
      },
      "wkb_geometry": {
        "type": "Point",
        "coordinates": [
          9.24815,
          7.1189533
        ]
      }
    },
    {
      "type": "Feature",
      "properties": {
        "id": 11376,
        "farm_category": "Crop Farm",
        "farm_type": "Commercial",
        "name": "Nenshi Orange Farm",
        "region": "NC",
        "state": "BE"
      },
      "wkb_geometry": {
        "type": "Point",
        "coordinates": [
          9.4697033,
          7.5819167
        ]
      }
    },
    {
      "type": "Feature",
      "properties": {
        "id": 11544,
        "farm_category": "Crop Farm",
        "farm_type": "Commercial",
        "name": "Iorkenger Adudu Orchard Farm",
        "region": "NC",
        "state": "BE"
      },
      "wkb_geometry": {
        "type": "Point",
        "coordinates": [
          9.1541567,
          7.390745
        ]
      }
    },
    {
      "type": "Feature",
      "properties": {
        "id": 11563,
        "farm_category": "Crop Farm",
        "farm_type": "Commercial",
        "name": "Orange Farm 18",
        "region": "NC",
        "state": "BE"
      },
      "wkb_geometry": {
        "type": "Point",
        "coordinates": [
          9.08477,
          7.0277767
        ]
      }
    },
    {
      "type": "Feature",
      "properties": {
        "id": 11578,
        "farm_category": "Crop Farm",
        "farm_type": "Both",
        "name": "Orange Farm 2",
        "region": "NC",
        "state": "BE"
      },
      "wkb_geometry": {
        "type": "Point",
        "coordinates": [
          8.7994167,
          7.53682
        ]
      }
    },
    {
      "type": "Feature",
      "properties": {
        "id": 11583,
        "farm_category": "Unknown",
        "farm_type": "Commercial",
        "name": "Community Farm",
        "region": "NC",
        "state": "BE"
      },
      "wkb_geometry": {
        "type": "Point",
        "coordinates": [
          8.8408567,
          7.5837983
        ]
      }
    },
    {
      "type": "Feature",
      "properties": {
        "id": 11765,
        "farm_category": "Mixed Farm",
        "farm_type": "Commercial",
        "name": "Orange And Cassava Farm",
        "region": "NC",
        "state": "BE"
      },
      "wkb_geometry": {
        "type": "Point",
        "coordinates": [
          8.7913983,
          7.71331
        ]
      }
    },
    {
      "type": "Feature",
      "properties": {
        "id": 11810,
        "farm_category": "Mixed Farm",
        "farm_type": "Commercial",
        "name": "Zaki Victor Verlumu Farm",
        "region": "NC",
        "state": "BE"
      },
      "wkb_geometry": {
        "type": "Point",
        "coordinates": [
          8.8390167,
          7.405205
        ]
      }
    },
    {
      "type": "Feature",
      "properties": {
        "id": 11837,
        "farm_category": "Crop Farm",
        "farm_type": "Both",
        "name": "Cassava Farm 6",
        "region": "NC",
        "state": "BE"
      },
      "wkb_geometry": {
        "type": "Point",
        "coordinates": [
          7.9549233,
          6.81278
        ]
      }
    },
    {
      "type": "Feature",
      "properties": {
        "id": 11841,
        "farm_category": "Mixed Farm",
        "farm_type": "Both",
        "name": "Evageris Ordolough Casava Farm",
        "region": "NC",
        "state": "BE"
      },
      "wkb_geometry": {
        "type": "Point",
        "coordinates": [
          9.47709,
          7.1378933
        ]
      }
    },
    {
      "type": "Feature",
      "properties": {
        "id": 12152,
        "farm_category": "Crop Farm",
        "farm_type": "Both",
        "name": "Aondover Gbaerev Orange Farm",
        "region": "NC",
        "state": "BE"
      },
      "wkb_geometry": {
        "type": "Point",
        "coordinates": [
          8.9459183,
          7.3646317
        ]
      }
    },
    {
      "type": "Feature",
      "properties": {
        "id": 12235,
        "farm_category": "Crop Farm",
        "farm_type": "Both",
        "name": "Food Crop Farm 2",
        "region": "NC",
        "state": "BE"
      },
      "wkb_geometry": {
        "type": "Point",
        "coordinates": [
          9.1465587,
          7.7931353
        ]
      }
    },
    {
      "type": "Feature",
      "properties": {
        "id": 12370,
        "farm_category": "Crop Farm",
        "farm_type": "Commercial",
        "name": "Terngu Hor Orange Farm",
        "region": "NC",
        "state": "BE"
      },
      "wkb_geometry": {
        "type": "Point",
        "coordinates": [
          9.0116483,
          6.8898267
        ]
      }
    },
    {
      "type": "Feature",
      "properties": {
        "id": 12422,
        "farm_category": "Crop Farm",
        "farm_type": "Both",
        "name": "Edeh Sunday Okpirigwu Mgbuji Cassava Farms",
        "region": "NC",
        "state": "BE"
      },
      "wkb_geometry": {
        "type": "Point",
        "coordinates": [
          7.839535,
          6.88462
        ]
      }
    },
    {
      "type": "Feature",
      "properties": {
        "id": 12519,
        "farm_category": "Mixed Farm",
        "farm_type": "Commercial",
        "name": "Cassava Farm",
        "region": "NC",
        "state": "BE"
      },
      "wkb_geometry": {
        "type": "Point",
        "coordinates": [
          8.9639417,
          7.0429133
        ]
      }
    },
    {
      "type": "Feature",
      "properties": {
        "id": 12572,
        "farm_category": "Crop Farm",
        "farm_type": "Subsistence",
        "name": "Msughne Pepper Farm",
        "region": "NC",
        "state": "BE"
      },
      "wkb_geometry": {
        "type": "Point",
        "coordinates": [
          9.02424,
          7.09177
        ]
      }
    },
    {
      "type": "Feature",
      "properties": {
        "id": 12578,
        "farm_category": "Crop Farm",
        "farm_type": "Commercial",
        "name": "Oya Adudu Orchard Farm",
        "region": "NC",
        "state": "BE"
      },
      "wkb_geometry": {
        "type": "Point",
        "coordinates": [
          9.1541267,
          7.3883367
        ]
      }
    },
    {
      "type": "Feature",
      "properties": {
        "id": 12637,
        "farm_category": "Crop Farm",
        "farm_type": "Commercial",
        "name": "Cassava Farm Gbise Market",
        "region": "NC",
        "state": "BE"
      },
      "wkb_geometry": {
        "type": "Point",
        "coordinates": [
          9.7711767,
          7.2178967
        ]
      }
    },
    {
      "type": "Feature",
      "properties": {
        "id": 12821,
        "farm_category": "Mixed Farm",
        "farm_type": "Both",
        "name": "Iorzahan Farm Tse Amasetimin Salem Church Amasetimin Village",
        "region": "NC",
        "state": "BE"
      },
      "wkb_geometry": {
        "type": "Point",
        "coordinates": [
          9.6634767,
          7.5953783
        ]
      }
    },
    {
      "type": "Feature",
      "properties": {
        "id": 13021,
        "farm_category": "Mixed Farm",
        "farm_type": "Both",
        "name": "Rev Sylvester Hyundu Yam Farm",
        "region": "NC",
        "state": "BE"
      },
      "wkb_geometry": {
        "type": "Point",
        "coordinates": [
          9.3424067,
          7.6813067
        ]
      }
    },
    {
      "type": "Feature",
      "properties": {
        "id": 13051,
        "farm_category": "Crop Farm",
        "farm_type": "Commercial",
        "name": "Orchard 1",
        "region": "NC",
        "state": "BE"
      },
      "wkb_geometry": {
        "type": "Point",
        "coordinates": [
          9.5292767,
          7.4800767
        ]
      }
    },
    {
      "type": "Feature",
      "properties": {
        "id": 13099,
        "farm_category": "Crop Farm",
        "farm_type": "Subsistence",
        "name": "Rice Farm 2",
        "region": "NC",
        "state": "BE"
      },
      "wkb_geometry": {
        "type": "Point",
        "coordinates": [
          9.177595,
          6.7069433
        ]
      }
    },
    {
      "type": "Feature",
      "properties": {
        "id": 13330,
        "farm_category": "Crop Farm",
        "farm_type": "Both",
        "name": "Boniface Uwua Orange Farm",
        "region": "NC",
        "state": "BE"
      },
      "wkb_geometry": {
        "type": "Point",
        "coordinates": [
          9.3252367,
          7.782925
        ]
      }
    },
    {
      "type": "Feature",
      "properties": {
        "id": 13352,
        "farm_category": "Crop Farm",
        "farm_type": "Both",
        "name": "Food Crop Farm 5",
        "region": "NC",
        "state": "BE"
      },
      "wkb_geometry": {
        "type": "Point",
        "coordinates": [
          9.1123417,
          7.7556817
        ]
      }
    },
    {
      "type": "Feature",
      "properties": {
        "id": 13369,
        "farm_category": "Unknown",
        "farm_type": "Subsistence",
        "name": "Cassava Farm",
        "region": "NC",
        "state": "BE"
      },
      "wkb_geometry": {
        "type": "Point",
        "coordinates": [
          9.2416438,
          7.1115995
        ]
      }
    },
    {
      "type": "Feature",
      "properties": {
        "id": 13380,
        "farm_category": "Crop Farm",
        "farm_type": "Both",
        "name": "Orange And Cassava Farm",
        "region": "NC",
        "state": "BE"
      },
      "wkb_geometry": {
        "type": "Point",
        "coordinates": [
          9.0245867,
          7.1921783
        ]
      }
    },
    {
      "type": "Feature",
      "properties": {
        "id": 13402,
        "farm_category": "Mixed Farm",
        "farm_type": "Commercial",
        "name": "Ukosu Yaor Orange Farm",
        "region": "NC",
        "state": "BE"
      },
      "wkb_geometry": {
        "type": "Point",
        "coordinates": [
          8.7366117,
          7.5366533
        ]
      }
    },
    {
      "type": "Feature",
      "properties": {
        "id": 13432,
        "farm_category": "Mixed Farm",
        "farm_type": "Both",
        "name": "Mbaazema Yam Farm",
        "region": "NC",
        "state": "BE"
      },
      "wkb_geometry": {
        "type": "Point",
        "coordinates": [
          9.3954717,
          7.593505
        ]
      }
    },
    {
      "type": "Feature",
      "properties": {
        "id": 13497,
        "farm_category": "Crop Farm",
        "farm_type": "Subsistence",
        "name": "Olegoga Farm",
        "region": "NC",
        "state": "BE"
      },
      "wkb_geometry": {
        "type": "Point",
        "coordinates": [
          7.8899217,
          7.967145
        ]
      }
    },
    {
      "type": "Feature",
      "properties": {
        "id": 13547,
        "farm_category": "Unknown",
        "farm_type": "Both",
        "name": "Pig Farm 1",
        "region": "NC",
        "state": "BE"
      },
      "wkb_geometry": {
        "type": "Point",
        "coordinates": [
          8.9870231,
          6.8136698
        ]
      }
    },
    {
      "type": "Feature",
      "properties": {
        "id": 13550,
        "farm_category": "Animal Farm",
        "farm_type": "Both",
        "name": "Son Atera Fish Pond",
        "region": "NC",
        "state": "BE"
      },
      "wkb_geometry": {
        "type": "Point",
        "coordinates": [
          8.9691017,
          7.2976017
        ]
      }
    },
    {
      "type": "Feature",
      "properties": {
        "id": 13575,
        "farm_category": "Crop Farm",
        "farm_type": "Commercial",
        "name": "Tyosula Orange Farm",
        "region": "NC",
        "state": "BE"
      },
      "wkb_geometry": {
        "type": "Point",
        "coordinates": [
          9.142175,
          7.039855
        ]
      }
    },
    {
      "type": "Feature",
      "properties": {
        "id": 13600,
        "farm_category": "Animal Farm",
        "farm_type": "Both",
        "name": "Animal Farm",
        "region": "NC",
        "state": "BE"
      },
      "wkb_geometry": {
        "type": "Point",
        "coordinates": [
          8.9499692,
          7.0065609
        ]
      }
    },
    {
      "type": "Feature",
      "properties": {
        "id": 13620,
        "farm_category": "Crop Farm",
        "farm_type": "Both",
        "name": "Nomyuu Terhemens Orange Farm",
        "region": "NC",
        "state": "BE"
      },
      "wkb_geometry": {
        "type": "Point",
        "coordinates": [
          8.6250733,
          7.3009917
        ]
      }
    },
    {
      "type": "Feature",
      "properties": {
        "id": 13650,
        "farm_category": "Crop Farm",
        "farm_type": "Both",
        "name": "Salemga Emmanuel Yam Farm",
        "region": "NC",
        "state": "BE"
      },
      "wkb_geometry": {
        "type": "Point",
        "coordinates": [
          9.2314,
          7.7901067
        ]
      }
    },
    {
      "type": "Feature",
      "properties": {
        "id": 13695,
        "farm_category": "Crop Farm",
        "farm_type": "Subsistence",
        "name": "Cassava Farm 7",
        "region": "NC",
        "state": "BE"
      },
      "wkb_geometry": {
        "type": "Point",
        "coordinates": [
          9.1793567,
          6.7029967
        ]
      }
    },
    {
      "type": "Feature",
      "properties": {
        "id": 13753,
        "farm_category": "Crop Farm",
        "farm_type": "Both",
        "name": "Timothy Tsea Orange Farm",
        "region": "NC",
        "state": "BE"
      },
      "wkb_geometry": {
        "type": "Point",
        "coordinates": [
          8.647955,
          7.247085
        ]
      }
    },
    {
      "type": "Feature",
      "properties": {
        "id": 13760,
        "farm_category": "Crop Farm",
        "farm_type": "Commercial",
        "name": "Food Crop Farm Onbadaa Gwer Local Government",
        "region": "NC",
        "state": "BE"
      },
      "wkb_geometry": {
        "type": "Point",
        "coordinates": [
          8.2457617,
          7.22295
        ]
      }
    },
    {
      "type": "Feature",
      "properties": {
        "id": 13802,
        "farm_category": "Crop Farm",
        "farm_type": "Commercial",
        "name": "Fidelis Bem Damaki Orchards",
        "region": "NC",
        "state": "BE"
      },
      "wkb_geometry": {
        "type": "Point",
        "coordinates": [
          9.120665,
          7.3494883
        ]
      }
    },
    {
      "type": "Feature",
      "properties": {
        "id": 13827,
        "farm_category": "Crop Farm",
        "farm_type": "Both",
        "name": "Food Crop Farm 2",
        "region": "NC",
        "state": "BE"
      },
      "wkb_geometry": {
        "type": "Point",
        "coordinates": [
          9.1132617,
          7.488405
        ]
      }
    },
    {
      "type": "Feature",
      "properties": {
        "id": 13838,
        "farm_category": "Crop Farm",
        "farm_type": "Both",
        "name": "Aondowase Pine Orange Farm",
        "region": "NC",
        "state": "BE"
      },
      "wkb_geometry": {
        "type": "Point",
        "coordinates": [
          8.67429,
          7.2818
        ]
      }
    },
    {
      "type": "Feature",
      "properties": {
        "id": 13897,
        "farm_category": "Crop Farm",
        "farm_type": "Commercial",
        "name": "Iorhen Orange Orchard",
        "region": "NC",
        "state": "BE"
      },
      "wkb_geometry": {
        "type": "Point",
        "coordinates": [
          8.9657433,
          6.9560867
        ]
      }
    },
    {
      "type": "Feature",
      "properties": {
        "id": 14014,
        "farm_category": "Crop Farm",
        "farm_type": "Commercial",
        "name": "Yator Farm",
        "region": "NC",
        "state": "BE"
      },
      "wkb_geometry": {
        "type": "Point",
        "coordinates": [
          9.23231,
          6.963725
        ]
      }
    },
    {
      "type": "Feature",
      "properties": {
        "id": 14069,
        "farm_category": "Mixed Farm",
        "farm_type": "Commercial",
        "name": "Orchard 1",
        "region": "NC",
        "state": "BE"
      },
      "wkb_geometry": {
        "type": "Point",
        "coordinates": [
          8.6189283,
          7.3580483
        ]
      }
    },
    {
      "type": "Feature",
      "properties": {
        "id": 14077,
        "farm_category": "Crop Farm",
        "farm_type": "Commercial",
        "name": "Orange Farm 6",
        "region": "NC",
        "state": "BE"
      },
      "wkb_geometry": {
        "type": "Point",
        "coordinates": [
          9.256575,
          7.0987867
        ]
      }
    },
    {
      "type": "Feature",
      "properties": {
        "id": 14127,
        "farm_category": "Crop Farm",
        "farm_type": "Commercial",
        "name": "Anongu Orange Orchard",
        "region": "NC",
        "state": "BE"
      },
      "wkb_geometry": {
        "type": "Point",
        "coordinates": [
          9.1119,
          6.758075
        ]
      }
    },
    {
      "type": "Feature",
      "properties": {
        "id": 14177,
        "farm_category": "Crop Farm",
        "farm_type": "Commercial",
        "name": "Peter Lorvaa Cassava Farm",
        "region": "NC",
        "state": "BE"
      },
      "wkb_geometry": {
        "type": "Point",
        "coordinates": [
          8.831735,
          7.3543617
        ]
      }
    },
    {
      "type": "Feature",
      "properties": {
        "id": 14303,
        "farm_category": "Crop Farm",
        "farm_type": "Commercial",
        "name": "Lgea Primary School Uka Orange Orchard",
        "region": "NC",
        "state": "BE"
      },
      "wkb_geometry": {
        "type": "Point",
        "coordinates": [
          9.0045383,
          6.9163233
        ]
      }
    },
    {
      "type": "Feature",
      "properties": {
        "id": 14304,
        "farm_category": "Crop Farm",
        "farm_type": "Both",
        "name": "Cassava Farm 1",
        "region": "NC",
        "state": "BE"
      },
      "wkb_geometry": {
        "type": "Point",
        "coordinates": [
          9.38218,
          6.9554867
        ]
      }
    },